City_ID,City,Country,Max Temp,Current Description,Lat,Lng,Hotel Name
0,Kasane,BW,70.81,overcast clouds,-17.8167,25.15,The Old House
1,Severo-Kurilsk,RU,25.29,broken clouds,50.6789,156.125,Kak Doma
3,Saint George,US,50.63,clear sky,37.1041,-113.5841,Best Western Plus Abbey Inn
4,San Quintin,MX,59.92,scattered clouds,30.4833,-115.95,Don Eddie's Sport Fishing Center
5,Gazanjyk,TM,80.46,clear sky,39.2446,55.5154,Railway motel
6,Yichang,CN,60.58,overcast clouds,30.7144,111.2847,Gezhouba Hotel
7,Busselton,AU,57.02,clear sky,-33.65,115.3333,Observatory Guest House
9,Berlevag,NO,30.15,broken clouds,70.8578,29.0864,Kvitbrakka
10,Khargone,IN,93.52,broken clouds,21.8167,75.6,SPOT ON 63187 Vallabha Hotel
11,Vaini,TO,75.36,few clouds,-21.2,-175.2,Keleti Beach Resort
12,Mahebourg,MU,77.29,broken clouds,-20.4081,57.7,Shandrani Beachcomber Resort & Spa
13,Hit,IQ,70.65,clear sky,33.6416,42.8251,بيت ابو رباح
14,Pochutla,MX,91.81,overcast clouds,15.7432,-96.4661,Hotel Posada San Jose
15,Barrow,US,1.42,overcast clouds,71.2906,-156.7887,King Eider Inn
16,Port Alfred,ZA,68.18,overcast clouds,-33.5906,26.891,The Halyards Hotel
17,Vila Velha,BR,87.75,few clouds,-20.3297,-40.2925,Hotel Vitória Palace
18,Kahului,US,77.85,few clouds,20.8947,-156.47,Maui Seaside Hotel
19,Chuy,UY,73.81,scattered clouds,-33.6971,-53.4616,Nuevo Hotel Plaza
20,Bluff,NZ,49.8,overcast clouds,-46.6,168.3333,Bluff Homestead - Guesthouse & Campervan Park
21,Mataura,NZ,49.48,scattered clouds,-46.1927,168.8643,Ellie's Villa
22,Ushuaia,AR,46.02,drizzle,-54.8,-68.3,Albatross Hotel
24,Cidreira,BR,74.66,overcast clouds,-30.1811,-50.2056,Hotel Castelo
25,Visby,SE,46.62,clear sky,57.6409,18.296,Best Western Solhem Hotel Visby
26,Victoria,HK,79.18,clear sky,22.2855,114.1577,Mini Hotel Central
27,Bambous Virieux,MU,77.25,light rain,-20.3428,57.7575,Casa Tia Villa
28,Rikitea,PF,79.25,scattered clouds,-23.1203,-134.9692,People ThankYou
29,Saint-Philippe,RE,76.59,light rain,-21.3585,55.7679,"Chambres d'hôte ""La Trinité"""
31,Nikolskoye,RU,40.91,overcast clouds,59.7035,30.7861,Tourist House - Sablino
32,Lanzhou,CN,49.8,scattered clouds,36.0564,103.7922,Lanzhou Amdo Xiangbala Hotel
33,Salinopolis,BR,76.53,moderate rain,-0.6136,-47.3561,Salinas Park Resort Maçarico AP101
34,Saint-Joseph,RE,75.58,light rain,-21.3667,55.6167,"""Plantation Bed and Breakfast"
35,Yulara,AU,85.84,overcast clouds,-25.2406,130.9889,Desert Gardens Hotel - Ayers Rock Resort
36,Ribeira Grande,PT,64.8,few clouds,38.5167,-28.7,Quinta da Meia Eira
37,Bengkulu,ID,76.75,overcast clouds,-3.8004,102.2655,Grage Hotel Bengkulu
38,Salamiyah,SY,51.93,clear sky,35.0113,37.0532,Gondolas Forum grandchildren and grandparents
39,Council Bluffs,US,60.03,mist,41.2619,-95.8608,"Holiday Inn Express & Suites Council Bluffs - Conv Ctr Area, an IHG Hotel"
40,Hobart,AU,53.06,few clouds,-42.8794,147.3294,St Ives Hobart Accommodation Tasmania
43,Shira,RU,30.22,light snow,54.4911,89.9531,Domchik
44,Aswan,EG,88.9,clear sky,24.0934,32.907,Nuba Nile
45,Puerto Ayora,EC,84.16,broken clouds,-0.7393,-90.3518,Finch Bay Galapagos Hotel
46,Tuatapere,NZ,47.57,broken clouds,-46.1333,167.6833,Ron and Tony's Bed & Breakfast
47,Butaritari,KI,80.4,light rain,3.0707,172.7902,Isles Sunset Lodge
48,Atuona,PF,78.96,scattered clouds,-9.8,-139.0333,Villa Enata
49,Malakal,SS,93.43,scattered clouds,9.5334,31.6605,Nile Palace Hotel
50,Hilo,US,75.27,overcast clouds,19.7297,-155.09,Hilo Hawaiian Hotel
51,Puerto Escondido,MX,85.03,broken clouds,15.85,-97.0667,Aldea del Bazar Hotel and Spa
52,La Rioja,ES,56.98,overcast clouds,42.25,-2.5,Casa Concejos
54,Yellowknife,CA,3.42,few clouds,62.456,-114.3525,The Explorer Hotel
55,Tuktoyaktuk,CA,5.0,few clouds,69.4541,-133.0374,End of The Road Ltd.
56,Lebu,CL,56.53,scattered clouds,-37.6167,-73.65,Hostal Las Lilas
57,Gurupi,BR,92.73,few clouds,-11.7292,-49.0686,Via Norte Hotel
58,Pisco,PE,71.65,clear sky,-13.7,-76.2167,Hotel San Isidro Oficial
59,Mar Del Plata,AR,68.02,few clouds,-38.0023,-57.5575,Gran Hotel Mar del Plata
60,Topola,RS,61.88,clear sky,44.2542,20.6825,Хотел „Опленац“ ДОО
61,Nueva Loja,EC,84.22,broken clouds,0.0847,-76.8828,Limoncocha Great Hotel
62,Kapaa,US,74.19,clear sky,22.0752,-159.319,Sheraton Kauai Coconut Beach Resort
63,Hermanus,ZA,65.35,scattered clouds,-34.4187,19.2345,Misty Waves Boutique Hotel
64,Champerico,GT,93.74,overcast clouds,14.3,-91.9167,"Hotel y restaurante ""El Diamante"""
65,Shimoda,JP,64.11,clear sky,34.6667,138.95,Shimoda Tokyu Hotel
67,Qaanaaq,GL,2.03,overcast clouds,77.484,-69.3632,Qaanaaq Hotel
68,East London,ZA,67.14,light rain,-33.0153,27.9116,Tu Casa
70,Hithadhoo,MV,84.11,clear sky,-0.6,73.0833,Scoop Guest House
71,Saint-Pierre,RE,77.92,few clouds,-21.3393,55.4781,Lindsey Hôtel
72,Haines Junction,CA,13.95,clear sky,60.7522,-137.5108,Parkside Inn
73,Eureka,US,47.19,broken clouds,40.8021,-124.1637,Eureka Inn Trademark By Wyndham
74,Moura,PT,64.51,broken clouds,38.1401,-7.4486,Hotel de Moura
76,Mazatlan,MX,80.56,few clouds,23.2167,-106.4167,Hotel La Siesta
77,Rumoi,JP,41.99,light rain,43.9344,141.6428,Business Hotel R-Inn
78,Gambela,ET,75.24,light rain,8.25,34.5833,Solomon Debebe Hotel
79,Tura,IN,73.9,broken clouds,25.5198,90.2201,Hotel RIKMAN Continental
80,Longyearbyen,SJ,15.64,light snow,78.2186,15.6401,"Radisson Blu Polar Hotel, Spitsbergen"
81,Touros,BR,85.78,overcast clouds,-5.1989,-35.4608,INN NEW HORIZON
82,Castro,BR,72.93,moderate rain,-24.7911,-50.0119,CHACARA BAILLY
83,Bambanglipuro,ID,76.78,broken clouds,-7.95,110.2833,Puri Brata
84,Acajutla,SV,87.37,overcast clouds,13.5928,-89.8275,Laureles
85,Port Elizabeth,ZA,67.32,clear sky,-33.918,25.5701,39 On Nile Guest House
88,San Cristobal,VE,80.78,overcast clouds,7.7669,-72.225,Pirineos
89,Jamestown,US,60.06,clear sky,42.097,-79.2353,Hampton Inn & Suites Jamestown
90,Husavik,IS,36.5,broken clouds,66.0449,-17.3389,Bjarnabúð
91,Maxixe,MZ,80.42,few clouds,-23.8597,35.3472,Oceano
92,Aquiraz,BR,87.89,overcast clouds,-3.9014,-38.3911,Pousada Rua Camurupim
93,Dunedin,NZ,52.81,few clouds,-45.8742,170.5036,Scenic Hotel Southern Cross
94,Shenjiamen,CN,61.02,overcast clouds,29.9576,122.298,Jinjiang Inn Zhoushan Putuo Shenjiamen
95,Arauca,CO,93.2,few clouds,7.0847,-70.7591,Hotel Verano Plaza
96,Itoman,JP,73.42,broken clouds,26.1247,127.6694,Southern Beach Hotel & Resort Okinawa
97,Lagunas,PE,83.53,broken clouds,-5.2269,-75.6753,Hospedaje Eco
98,Georgetown,MY,82.33,scattered clouds,5.4112,100.3354,Cititel Penang
99,Vila Franca Do Campo,PT,63.01,overcast clouds,37.7167,-25.4333,Pestana Bahia Praia
100,Kesan,TR,46.85,broken clouds,40.8558,26.6303,Saros Hotel
101,Thompson,CA,28.56,broken clouds,55.7435,-97.8558,Burntwood Hotel
102,Kaitangata,NZ,46.0,scattered clouds,-46.2817,169.8464,Kaitangata Motor Camp
104,Port Hardy,CA,42.98,broken clouds,50.6996,-127.4199,Airport Inn-Port Hardy
105,Bredasdorp,ZA,69.03,few clouds,-34.5322,20.0403,Bredasdorp Country Manor
106,Maceio,BR,87.24,scattered clouds,-9.6658,-35.7353,Hotel Ponta Verde Maceió
107,Ahuimanu,US,75.2,scattered clouds,21.4447,-157.8378,Paradise Bay Resort
108,Rumford,US,59.83,overcast clouds,44.5537,-70.5509,coastal rentals llc
109,Apatou,GF,83.62,broken clouds,5.155,-54.3472,Yoto quensha
110,Cape Town,ZA,69.28,clear sky,-33.9258,18.4232,"Radisson Blu Hotel Waterfront, Cape Town"
112,Salalah,OM,82.49,few clouds,17.0151,54.0924,"HAMDAN PLAZA HOTEL SALALAH, an HTG Hotel"
113,Kurilsk,RU,35.2,snow,45.2333,147.8833,Hotel Ostrov
114,Kruisfontein,ZA,67.37,few clouds,-34.0033,24.7314,Oyster Bay House Rental
115,Faanui,PF,81.68,clear sky,-16.4833,-151.75,Bora-Bora Pearl Beach Resort & Spa
116,Taltal,CL,66.34,clear sky,-25.4,-70.4833,Residencial Karime
117,Pangnirtung,CA,12.2,broken clouds,66.1451,-65.7125,Kilabuk Lodge
118,San Policarpo,PH,77.14,overcast clouds,12.1791,125.5072,Agapita M. Nicart
119,Roald,NO,45.09,clear sky,62.5833,6.1333,Flem Cabins
121,Punta Arenas,CL,51.91,scattered clouds,-53.15,-70.9167,Hotel Hain
122,Bethel,US,65.03,clear sky,41.3712,-73.414,Courtyard by Marriott Danbury
123,Tucuman,AR,68.0,light intensity drizzle,-26.8241,-65.2226,Dallas Hotel Tucuman
124,Muli,MV,85.17,scattered clouds,2.9167,73.5667,Medhufushi Island Resort
127,Talnakh,RU,29.21,snow,69.4865,88.3972,Talnakh Hotel
128,Sioux Lookout,CA,35.67,broken clouds,50.1001,-91.917,Knobby's Fly-In Camps
130,Panaba,MX,93.4,broken clouds,21.2833,-88.2667,Hotel California
132,Kawalu,ID,72.48,broken clouds,-7.3817,108.2082,West Jontor
134,Robertsport,LR,82.45,overcast clouds,6.7533,-11.3686,Kwepunha Retreat
137,Ancud,CL,53.22,scattered clouds,-41.8697,-73.8203,Hotel Arena Gruesa
138,Tual,ID,83.17,light rain,-5.6667,132.75,Grand Vilia Hotel
139,Oktyabrskoye,RU,46.54,overcast clouds,43.0645,44.7417,Prolesok Mini-hotel
140,Cap Malheureux,MU,77.47,clear sky,-19.9842,57.6142,Pereybere Hotel & Spa
141,Teguise,ES,68.22,scattered clouds,29.0605,-13.564,B&B La Casona de Nazaret
142,Sabha,LY,85.8,overcast clouds,27.0377,14.4283,Foundation Taaj Asala for Historical Research and Archeology
145,Hof,DE,60.03,clear sky,50.3167,11.9167,Hotel Burghof
146,Bay Roberts,CA,41.05,overcast clouds,47.5999,-53.2648,Stonewall Inn
147,Road Town,VG,84.24,scattered clouds,18.4167,-64.6167,"ZINGARA 76ft Catamaran, full crew-all included"
148,Kailua,US,75.49,few clouds,21.4022,-157.7394,Sheffield House Bed & Breakfast
149,Batagay,RU,5.41,overcast clouds,67.6333,134.6333,Gostinitsa Ki'ileekh
150,Bondoukou,CI,96.22,broken clouds,8.0333,-2.8,Prestige Hotel
151,Lhokseumawe,ID,80.98,overcast clouds,5.1801,97.1507,OYO 3278 Penginapan Alfajri
152,Lompoc,US,62.02,clear sky,34.6391,-120.4579,"Holiday Inn Express Lompoc, an IHG Hotel"
154,Margate,GB,59.88,overcast clouds,51.3813,1.3862,Premier Inn Margate hotel
155,Marsh Harbour,BS,74.52,clear sky,26.5412,-77.0636,Abaco Beach Resort
156,Asau,RO,45.52,overcast clouds,46.4333,26.4,Casa Mika Ciobanus
157,Westport,US,66.15,clear sky,41.1415,-73.3579,The Inn at Longshore
158,Puerto Colombia,CO,89.69,overcast clouds,10.9878,-74.9547,Hotel El Emigrante
159,Faya,SA,69.91,clear sky,18.3851,42.4509,املاك خالد الشعشوع
160,Prabumulih,ID,73.42,moderate rain,-3.45,104.25,OYO 2722 Lemon Residence Prabumulih
163,Ormara,PK,80.19,clear sky,25.2088,64.6357,Kenara Colony house for Rent
164,Amga,RU,1.99,broken clouds,60.8953,131.9608,Algys
165,New Norfolk,AU,52.72,scattered clouds,-42.7826,147.0587,The Shingles Riverside Cottages
167,Cranbrook,CA,26.44,overcast clouds,49.4999,-115.7688,Almo Court Motel
168,Aklavik,CA,10.4,few clouds,68.2191,-135.0107,Aklavik Inn
169,San Jeronimo,PE,61.72,broken clouds,-11.9472,-75.2829,Tuki Llajta Pueblo Bonito Eco Lodge
170,Batticaloa,LK,81.34,overcast clouds,7.7102,81.6924,Grand Star Guest House
171,Portland,US,43.2,overcast clouds,45.5234,-122.6762,Embassy Suites by Hilton Portland Downtown
172,Geraldton,AU,59.41,clear sky,-28.7667,114.6,Broadwater Mariner Resort
173,San Patricio,US,84.18,broken clouds,28.017,-97.5169,"Motel 6 Sinton, TX"
174,Alice Springs,AU,74.75,scattered clouds,-23.7,133.8833,Desert Palms Alice Springs
175,Ribas Do Rio Pardo,BR,94.12,clear sky,-20.4431,-53.7592,Pousada Avenida
176,Bubaque,GW,75.04,overcast clouds,11.2833,-15.8333,"Casa Dora, Bubaque"
177,Dawlatabad,AF,71.92,few clouds,36.4141,64.9053,WASIM ASGAR KHAN
178,Lyuban,BY,43.45,overcast clouds,52.7985,28.0048,"Gostinitsa ""Oressa"""
179,North Battleford,CA,16.41,overcast clouds,52.7834,-108.2847,Tropical Inn
180,Kokoda,PG,73.69,broken clouds,-8.8785,147.7407,Daito Guest House
181,Iberia,US,78.06,overcast clouds,29.9502,-91.7507,back to back rv park
182,Tazovskiy,RU,34.95,light snow,67.4667,78.7,TazHostel
183,La Ronge,CA,12.42,few clouds,55.1001,-105.2842,Northland Motor Hotel
184,Sainte-Thecle,CA,57.25,broken clouds,46.8168,-72.4991,Camping Lac et Forêt
185,Camacha,PT,63.82,scattered clouds,33.0833,-16.3333,Hotel Porto Santo & Spa
186,Suba,PH,79.9,overcast clouds,10.8438,121.0102,Jarnchi Pension House
188,Balkanabat,TM,83.48,clear sky,39.5108,54.3671,Nebitchi Hotel
189,Coquimbo,CL,60.53,scattered clouds,-29.9533,-71.3436,Hotel San Juan
190,Petropavlovsk-Kamchatskiy,RU,21.79,clear sky,53.0452,158.6483,The Hotel Petropavlovsky
191,Waipawa,NZ,54.63,overcast clouds,-41.4122,175.5153,Tora Coastal Walk
192,Spring Hill,US,84.06,clear sky,28.4769,-82.5255,Room of The world By traveline Plus
193,Kawhia,NZ,62.51,overcast clouds,-38.0651,174.8183,Kawhia Beachside Scape Holiday Park
194,Victor Harbor,AU,54.0,broken clouds,-35.5667,138.6167,McCracken Country Club
195,Yarada,IN,84.52,few clouds,17.65,83.2667,Yarada Jungle Beach Resorts
196,Jacqueville,CI,82.81,overcast clouds,5.2052,-4.4146,Hotel Le Martin Pecheur
197,Aksu,CN,66.47,broken clouds,41.1231,80.2644,Pudong Holiday Hotel
198,Coihaique,CL,51.75,broken clouds,-45.5752,-72.0662,Diego De Almagro Coyhaique
200,Seoul,KR,61.99,heavy intensity rain,37.5683,126.9778,롯데호텔 서울
201,Yenagoa,NG,84.0,overcast clouds,4.9247,6.2642,Aridolf Resort Wellness and Spa
202,Havoysund,NO,30.43,light snow,70.9963,24.6622,Arctic View Glamping & Restaurant
203,Santa Ines,BR,84.6,overcast clouds,-3.6667,-45.38,Palace hotel
204,Tasiilaq,GL,32.16,broken clouds,65.6145,-37.6368,The Red House
205,Kavieng,PG,81.63,clear sky,-2.5744,150.7967,Nusa Island Retreat
207,Ponta Delgada,PT,63.32,scattered clouds,37.7333,-25.6667,Vila Nova Hotel
208,Brae,GB,43.36,overcast clouds,60.3964,-1.353,Busta House Hotel
209,Caldwell,US,40.98,broken clouds,43.6629,-116.6874,La Quinta Inn by Wyndham Caldwell
210,Aneho,TG,84.4,scattered clouds,6.2333,1.6,Hotel La Linette
211,Along,IN,68.18,scattered clouds,28.1667,94.7667,Hotel West
212,Avarua,CK,75.25,broken clouds,-21.2078,-159.775,Paradise Inn
213,Carnarvon,AU,68.07,clear sky,-24.8667,113.6333,Hospitality Carnarvon
214,Acarau,BR,82.63,overcast clouds,-2.8856,-40.12,castelo pizzaria
215,Arraial Do Cabo,BR,85.96,clear sky,-22.9661,-42.0278,Pousada Porto Praia
216,Namatanai,PG,78.4,few clouds,-3.6667,152.4333,Seagulls Inn Namatani
217,Gornopravdinsk,RU,31.77,clear sky,60.05,69.9,Hostel
218,Paracatu,BR,89.55,scattered clouds,-17.2222,-46.8747,Hotel Paracatu Plaza
219,Half Moon Bay,US,56.14,clear sky,37.4636,-122.4286,"The Ritz-Carlton, Half Moon Bay"
220,The Valley,AI,82.54,scattered clouds,18.217,-63.0578,CeBlue Villas & Beach Resort
221,Yaounde,CM,79.74,broken clouds,3.8667,11.5167,Hotel Mérina Yaoundé
222,Saint-Leu,RE,77.83,few clouds,-21.15,55.2833,La Caz Oceane
223,Ginir,ET,63.28,overcast clouds,7.1333,40.7,Sura Dare Village
224,Iqaluit,CA,17.33,overcast clouds,63.7506,-68.5145,Frobisher Inn
225,Ilhabela,BR,81.57,overcast clouds,-23.7781,-45.3581,Ilha Flat Hotel
226,Quthing,LS,54.3,overcast clouds,-30.4,27.7003,Mountainside Hotel
227,Tsiroanomandidy,MG,67.91,broken clouds,-18.7667,46.0333,Hotel Ravinala
228,Palu,ID,75.31,broken clouds,-0.8917,119.8707,Hotel Santika Palu
229,Botou,CN,49.73,overcast clouds,38.0667,116.5667,Hanting Hotel Huanghua City Hall
230,Jabinyanah,TN,64.2,overcast clouds,35.035,10.9081,maison belmabrouk
231,Pacific Grove,US,56.01,clear sky,36.6177,-121.9166,Lovers Point Inn
232,Rabo De Peixe,PT,62.11,scattered clouds,37.8,-25.5833,Quinta das Giestas
233,Nuevo Progreso,MX,81.46,scattered clouds,23.1667,-97.95,Balneario Rio el Paraiso
235,Xuddur,SO,88.75,broken clouds,4.1213,43.8894,Banjanay Hotel
236,Chirongui,YT,80.53,broken clouds,-12.9319,45.1483,La Villa Mahatsara
238,Nome,US,32.07,overcast clouds,64.5011,-165.4064,Dredge 7 Inn
239,Katsuura,JP,62.33,clear sky,35.1333,140.3,Katsuura Hotel Mikazuki
240,Diamantino,BR,91.63,clear sky,-14.4086,-56.4461,Hotel Delta
241,Souillac,MU,77.38,light rain,-20.5167,57.5167,Shanti Maurice Resort & Spa
243,Havre-Saint-Pierre,CA,39.56,overcast clouds,50.2334,-63.5986,Auberge Niapiskau
244,Tubuala,PA,81.81,broken clouds,9.5167,-79.0333,Río Nabagana
245,Mount Gambier,AU,46.42,clear sky,-37.8333,140.7667,The Commodore
246,Kudahuvadhoo,MV,85.32,few clouds,2.6708,72.8944,Niyama Private Islands Maldives
247,Olafsvik,IS,38.3,overcast clouds,64.8945,-23.7142,Hotel Olafsvik
248,Richards Bay,ZA,70.34,scattered clouds,-28.783,32.0377,BON Hotel Waterfront Richards Bay
249,Bihoro,JP,40.26,light rain,43.8228,144.1044,グリーンビレッジ美幌
250,Gladstone,AU,71.78,scattered clouds,-23.85,151.25,Highpoint International Hotel
251,Torbay,CA,40.28,overcast clouds,47.6666,-52.7314,Gallows Cove
252,Mkushi,ZM,66.04,overcast clouds,-13.6202,29.3939,Mkushi Police Club
254,Ilulissat,GL,30.22,few clouds,69.2167,-51.1,Hotel Arctic
257,Cherkasy,UA,42.6,overcast clouds,49.4285,32.0621,Dnipro - Cherkasy Oblast
258,Olga,RU,37.47,overcast clouds,43.7444,135.2892,Gostinitsa Rosmorport.
259,Ponta Do Sol,PT,72.01,broken clouds,32.6667,-17.1,Hotel do Campo
260,Kaeo,NZ,62.33,light rain,-35.1,173.7833,Bushido Lodge
261,Naze,JP,67.12,few clouds,28.3667,129.4833,Shishime Hotel
262,Tomatlan,MX,92.97,scattered clouds,19.9333,-105.25,El Salvial
263,Christchurch,NZ,50.95,overcast clouds,-43.5333,172.6333,The George
264,Arrecife,ES,71.58,scattered clouds,28.963,-13.5477,Hotel Lancelot
265,Hasaki,JP,57.6,few clouds,35.7333,140.8333,Inubosaki Kanko Hotel
267,Mahajanga,MG,78.82,few clouds,-15.7167,46.3167,Restaurant Greedy Coco Lodge Majunga
268,Kantunilkin,MX,89.17,broken clouds,21.0917,-87.45,Posada Paraiso
270,Quang Ngai,VN,73.09,scattered clouds,15.1167,108.8,Central Hotel
271,Ukiah,US,49.86,broken clouds,39.1502,-123.2078,Hampton Inn Ukiah
272,Chifeng,CN,40.01,scattered clouds,42.2683,118.9636,Junyu Tiancheng Hotel
273,Kodiak,US,33.31,clear sky,57.79,-152.4072,Best Western Kodiak Inn And Convention Center
274,Honolulu,US,75.31,scattered clouds,21.3069,-157.8583,Aston at the Executive Centre Hotel
275,Rocha,UY,71.37,scattered clouds,-34.4833,-54.3333,Hotel Arrarte
277,Contamana,PE,89.2,broken clouds,-7.3333,-75.0167,Shiringal Touristic Park
278,Shubarkuduk,KZ,57.52,overcast clouds,49.1447,56.4872,Sirius
279,Laguna,US,56.28,clear sky,38.421,-121.4238,"Holiday Inn Express & Suites Elk Grove Central - Hwy 99, an IHG Hotel"
280,Corowa,AU,49.28,few clouds,-36.0333,146.3833,Statesman Motor Inn
281,Quatre Cocos,MU,77.11,light rain,-20.2078,57.7625,Sunrise Attitude Hotel
282,Wanning,CN,73.85,few clouds,18.8003,110.3967,Paradise Hotel
283,Port-Gentil,GA,81.59,scattered clouds,-0.7193,8.7815,Fengshui Residence
284,Moroni,KM,80.55,light rain,-11.7022,43.2551,Hotel les Arcades
285,Campbell River,CA,40.59,overcast clouds,50.0163,-125.2446,Anchor Inn & Suites
286,Mezen,RU,32.0,overcast clouds,65.8522,44.24,Gostevoy Dom Everest
287,Sur,OM,86.95,clear sky,22.5667,59.5289,Sur Plaza Hotel
289,Nuuk,GL,30.81,few clouds,64.1835,-51.7216,Vandrehuset
290,Warwick,US,57.76,broken clouds,41.7001,-71.4162,Hampton Inn & Suites Providence/Warwick-Airport
291,Zaraza,VE,99.45,broken clouds,9.3503,-65.3245,Hotel Zaraza
292,Upernavik,GL,13.05,light snow,72.7868,-56.1549,Café de Upernavik
293,Formosa Do Rio Preto,BR,97.29,scattered clouds,-11.0483,-45.1931,Porto Center Hotel
294,Le Mars,US,57.04,overcast clouds,42.7942,-96.1656,"Holiday Inn Express & Suites Le Mars, an IHG Hotel"
296,Molchanovo,RU,25.39,broken clouds,57.5817,83.7692,Yut Inn
297,Rorvik,NO,42.91,few clouds,64.8621,11.2373,Kysthotellet Rørvik AS
298,Kaihua,CN,60.03,clear sky,23.3687,104.28,Zhongyu Hotel
299,Fortuna,US,46.92,overcast clouds,40.5982,-124.1573,Super 8 by Wyndham Fortuna
300,Lengshuitan,CN,68.13,overcast clouds,26.4111,111.5956,Jialong Hotel
301,Zeya,RU,26.71,scattered clouds,53.75,127.2667,Kapital Inn
304,Solnechnyy,RU,23.31,light snow,50.7214,136.6319,Hotel complex Pastoral
305,De-Kastri,RU,26.85,light snow,51.4667,140.7833,Somon Hotel
306,Paamiut,GL,33.01,overcast clouds,61.994,-49.6678,Pistut
307,Mandalgovi,MN,21.88,broken clouds,45.7625,106.2708,В.Ганбат
308,Bucerias,MX,78.78,broken clouds,20.75,-105.3333,Royal Decameron Complex - Puerto Vallarta
309,Batemans Bay,AU,59.09,overcast clouds,-35.7167,150.1833,Batemans Bay Marina Resort
310,Atambua,ID,74.19,overcast clouds,-9.1061,124.8925,Kost Alfa Flat
312,Ahipara,NZ,65.61,light rain,-35.1667,173.1667,Ahipara Holiday Park
313,Nemuro,JP,36.21,overcast clouds,43.3236,145.575,Hotel Nemuro Kaiyoutei
314,Namibe,AO,75.83,light rain,-15.1961,12.1522,Hotel Chik Chik Namibe
315,Boa Vista,BR,91.38,broken clouds,2.8197,-60.6733,Aipana Plaza Hotel
318,Andreapol,RU,38.07,overcast clouds,56.6513,32.2664,Gostevoy Dom Uyut
320,Quelimane,MZ,80.55,few clouds,-17.8786,36.8883,Hotel Flamingo
321,Solok,ID,74.35,overcast clouds,-0.7918,100.6593,Mami Hotel & Restaurant
322,Pokrovskoye,RU,47.05,overcast clouds,47.4157,38.8971,Тихий уголок
323,Octeville,FR,55.89,clear sky,49.6261,-1.6435,Hôtel Le Louvre Cherbourg
324,Indramayu,ID,80.94,clear sky,-6.3264,108.32,Grand Trisula Hotel
325,Kushima,JP,64.72,few clouds,31.4583,131.2333,Hanaoka
327,Panzhihua,CN,63.75,few clouds,26.5851,101.7128,Electric Power Hotel
328,Viedma,AR,55.87,broken clouds,-40.8135,-62.9967,Hotel Cristal
329,Nagyrabe,HU,52.36,clear sky,47.2,21.3333,Módos Falusi Szálláshely
330,Teahupoo,PF,71.56,few clouds,-17.8333,-149.2667,Vanira Lodge
331,Hofn,IS,38.14,overcast clouds,64.2539,-15.2082,Hótel Höfn
332,Ainazi,LV,38.17,clear sky,57.8636,24.3578,Ikla Hostel
335,Victoria Point,AU,68.43,few clouds,-27.5833,153.3,Bay Retreat Motel
337,Anadyr,RU,25.3,light snow,64.75,177.4833,Отке17.ру — жильё для командированных
338,Mareeba,AU,72.32,broken clouds,-17.0,145.4333,Trinity Plains Tourist Park
340,Port Augusta,AU,68.04,scattered clouds,-32.5,137.7667,Majestic Oasis Apartments
341,Clyde River,CA,3.43,overcast clouds,70.4692,-68.5914,Qamaq Hotel
342,Port Moresby,PG,74.62,scattered clouds,-9.4431,147.1797,Lamana Hotel (Port Moresby)
343,Old Saybrook,US,63.95,clear sky,41.2918,-72.3762,Saybrook Point Resort & Marina - Luxury Connecticut Oceanside Hotel
344,Tottori,JP,60.96,scattered clouds,35.5,134.2333,Hotel Monarque Tottori
345,Sorland,NO,40.86,scattered clouds,67.667,12.6934,Sjybrygga fiskecamp
346,Altamira,BR,87.89,scattered clouds,-3.2033,-52.2064,Requinte Hotel
347,Iquique,CL,68.04,clear sky,-20.2208,-70.1431,Backpacker`s Hostel Iquique
348,Marsa Matruh,EG,59.2,clear sky,31.3525,27.2453,Beau Site
350,Roma,US,60.73,few clouds,43.2128,-75.4557,Wingate By Wyndham Rome
351,Vicente Guerrero,MX,70.99,overcast clouds,19.1194,-98.1708,Instituto De Seguridad Y Servicios Sociales De Los Trabajadores Del Estado
352,Bardiyah,LY,59.11,clear sky,31.7561,25.0865,بورتو بردية
353,Soyo,AO,80.24,overcast clouds,-6.1349,12.3689,Hotel Mpampa
354,Meulaboh,ID,78.39,overcast clouds,4.1363,96.1285,Kost Pria
355,Taunggyi,MM,67.75,clear sky,20.7833,97.0333,True Treasure Hotel
357,Great Falls,US,21.67,overcast clouds,47.5002,-111.3008,La Quinta Inn & Suites by Wyndham Great Falls
358,Ucluelet,CA,41.31,overcast clouds,48.9329,-125.5528,Black Rock Oceanfront Resort
359,Sitka,US,37.29,few clouds,57.0531,-135.33,Westmark Sitka
360,Muroto,JP,65.07,overcast clouds,33.2833,134.15,Oota Ryokan
361,Sao Filipe,CV,72.37,overcast clouds,14.8961,-24.4956,Hotel Xaguate
362,Merrill,US,53.67,overcast clouds,45.1805,-89.6835,Prairie Motel
363,Ellsworth,US,53.13,overcast clouds,44.5434,-68.4195,Hampton Inn Ellsworth/Bar Harbor
364,Broome,US,64.02,clear sky,42.2506,-75.833,Chenango Valley State Park
365,Dakar,SN,76.08,scattered clouds,14.6937,-17.4441,Novotel Dakar
366,Port Lincoln,AU,63.48,overcast clouds,-34.7333,135.8667,Port Lincoln Hotel
367,Hamilton,US,68.25,overcast clouds,39.1834,-84.5333,Six Acres Bed & Breakfast
368,Korla,CN,62.62,overcast clouds,41.7597,86.1469,Gulisitan Hotel
369,Nyurba,RU,9.55,overcast clouds,63.2842,118.3319,"Гостиница ""Comfort"""
370,Zhigansk,RU,1.63,overcast clouds,66.7697,123.3711,Gostinichnyy Kompleks Aylgy
371,Tigil,RU,15.62,overcast clouds,57.8,158.6667,Tigil'
372,Narsaq,GL,46.62,overcast clouds,60.9167,-46.05,Sleep In Narsaq
373,La Romana,DO,86.36,scattered clouds,18.4273,-68.9728,Casa de Campo Resort and Villas
374,Coahuayana,MX,91.85,scattered clouds,18.7333,-103.6833,El rranchito michuacan de ocampos
375,El Retorno,CO,84.52,broken clouds,2.3302,-72.6276,Hostal la posada de Rita
376,Mao,ES,59.56,broken clouds,39.8885,4.2658,ARTIEM Capri
378,Estevan,CA,23.2,overcast clouds,49.1334,-102.9842,"Motel 6 Estevan, SK"
379,Mehamn,NO,30.11,light snow,71.0357,27.8492,Mehamn Arctic Hotel AS
380,Xichang,CN,57.27,clear sky,27.8964,102.2634,Xichang ibis Hotel
383,Karratha,AU,82.17,clear sky,-20.7377,116.8463,ibis Styles Karratha
384,Saint-Francois,FR,63.84,clear sky,46.4154,3.9054,Manoir Du Bonheur
385,Kot Diji,PK,86.02,few clouds,27.3427,68.7083,"Heritage Park, Restaurant & Guesthouse Kotdiji"
386,Qixia,CN,48.67,overcast clouds,37.2975,120.8256,Etsong Hotel
387,Muros,ES,58.68,scattered clouds,42.7762,-9.0603,Apartment Av. Castelao
388,Jalu,LY,71.01,broken clouds,29.0331,21.5482,صاحبة الفخامة
389,Daly City,US,55.02,few clouds,37.7058,-122.4619,Mission Inn San Francisco
390,Gorontalo,ID,74.95,overcast clouds,0.5412,123.0595,Maqna Hotel by Prasanthi
391,San Jose De Guanipa,VE,95.18,broken clouds,8.8872,-64.1651,HOTEL 283 SUITES
392,Santiago,CL,71.17,clear sky,-33.4569,-70.6483,Hotel Panamericano
393,Norman Wells,CA,5.04,clear sky,65.282,-126.8329,Heritage Hotel
394,Vengerovo,RU,32.23,clear sky,55.6848,76.7471,Gostinitsa
395,Brookhaven,US,75.24,overcast clouds,31.5791,-90.4407,Americas Best Value Inn Brookhaven
396,Odweyne,SO,81.36,few clouds,9.4092,45.064,Eng Hiirey House
397,Flin Flon,CA,13.84,overcast clouds,54.7682,-101.865,Victoria Inn Flin Flon
398,Orchard Homes,US,30.34,overcast clouds,46.8633,-114.0484,Broadway Inn Missoula
400,Ust-Ilimsk,RU,20.39,scattered clouds,58.0006,102.6619,AleNat Center
401,Zapadnaya Dvina,RU,38.46,overcast clouds,56.259,32.0745,"Cafe ""Rainbow"""
402,Meadow Lake,US,66.87,scattered clouds,34.8014,-106.5436,TumbleWeed RV Park
403,Asfi,MA,62.83,overcast clouds,32.2994,-9.2372,Hôtel Abda
406,Rio Verde De Mato Grosso,BR,91.71,clear sky,-18.9181,-54.8442,Quedas Palace Hotel
407,Paidha,UG,65.62,light rain,2.4167,30.9855,OPIPAAF (OTHUMBA PITHUA PALWONGA )
408,Jibuti,DJ,77.79,clear sky,11.5,42.5,Orchid Main Camp Goubet
409,La Primavera,CO,93.04,overcast clouds,5.4906,-70.4092,La Riviera Hotel Colonial
410,Dudinka,RU,29.62,snow,69.4058,86.1778,Hotel Viktoria
411,Encruzilhada,BR,89.73,scattered clouds,-15.5314,-40.9094,Hotel e Restaurante Rio Pardo
413,Colorado Springs,US,59.32,few clouds,38.8339,-104.8214,"The Antlers, A Wyndham Hotel"
414,Puerto Cabezas,NI,85.96,scattered clouds,14.0351,-83.3888,Cabaña Caribe
415,Hede,CN,51.4,overcast clouds,33.7681,120.2517,Vienna 3 Best Hotel Sheyang Jiefang Rd
416,Ixtapa,MX,78.03,broken clouds,20.7,-105.2,hotel la terminal
417,Flinders,AU,62.19,overcast clouds,-34.5833,150.8552,Shellharbour Resort & Conference Centre
418,Kieta,PG,78.76,overcast clouds,-6.2167,155.6333,Uruna Bay Retreat
419,Urumqi,CN,50.95,clear sky,43.801,87.6005,Hua Ling Grand Hotel Urumqi
420,Maldonado,UY,69.19,clear sky,-34.6667,-54.9167,La Cimarrona
421,Celestun,MX,87.03,overcast clouds,20.8667,-90.4,Posada Lilia
422,Safaga,EG,75.85,clear sky,26.7292,33.9365,Lamar Resort Abu Soma
423,Santa Cruz,BO,81.86,broken clouds,-17.8,-63.1667,Aviador Hotel Boutique
424,Rize,TR,21.42,light snow,40.9044,40.8949,Zilkale Otel
425,Kpandae,GH,82.53,moderate rain,8.4689,-0.0113,S. Amaski Guest House
428,Moron,AR,71.35,few clouds,-34.6534,-58.6198,Hotel Morón
429,Yartsevo,RU,36.12,light rain,55.0667,32.6964,Apel'sin
430,Northam,GB,59.4,overcast clouds,51.0333,-4.2167,Durrant House Hotel
431,Vagur,FO,41.74,overcast clouds,61.4732,-6.8119,Budget Guesthouse Borgustova
432,Te Anau,NZ,42.26,clear sky,-45.4167,167.7167,Kingsgate Hotel Te Anau
434,Beregovoy,RU,44.65,scattered clouds,55.173,73.2198,Usad'ba Gribanovo
435,Treuchtlingen,DE,61.56,broken clouds,48.95,10.9167,Gasthof Zum Goldenen Lamm
437,Wilmington,US,82.0,clear sky,34.2257,-77.9447,"Hotel Ballast Wilmington, Tapestry Collection by Hilton"
438,Mporokoso,ZM,63.45,overcast clouds,-9.3727,30.125,Government Guest House
439,Karaton,ID,74.26,broken clouds,-6.3424,106.1045,Parkir Mobil Wisata CAS Water Park
440,Kondinskoye,RU,34.7,overcast clouds,59.6481,67.41,Gostinitsa
442,Abu Zabad,SD,94.3,broken clouds,12.35,29.25,حامد محمد نور
443,Smolenka,RU,23.07,overcast clouds,52.1352,113.4974,Russkaya Usadba v Zarechye
444,Kargopol,RU,34.45,snow,61.5071,38.9456,Moroshka Inn
445,Rancho Palos Verdes,US,64.0,clear sky,33.7445,-118.387,Terranea Resort
446,Shelburne,CA,59.9,clear sky,44.0787,-80.2041,The Retreat at the Farm
447,Innisfail,AU,76.53,overcast clouds,-17.5333,146.0333,Moondarra Motel
448,Pierre,US,56.05,overcast clouds,44.3683,-100.351,Ramkota Hotel
450,College,US,34.12,few clouds,64.8569,-147.8028,Pike's Waterfront Lodge
451,Sakaiminato,JP,57.18,broken clouds,35.55,133.2333,Matsuya
452,Redcliffe,AU,68.41,clear sky,-27.2307,153.0973,Scarborough Beach Resort
453,Brawley,US,68.02,scattered clouds,32.9787,-115.5303,Brawley Inn Hotel & Conference Center
454,Diu,IN,80.1,clear sky,20.7141,70.9822,Hotel Relax Inn
456,Urucara,BR,82.04,overcast clouds,-2.5364,-57.76,Pousada Maria Bonita
457,Bathsheba,BB,86.61,few clouds,13.2167,-59.5167,Atlantis Hotel
458,Dhidhdhoo,MV,83.46,overcast clouds,6.8833,73.1,Dhidhoo beach
459,Ambon,ID,77.14,scattered clouds,-3.6954,128.1814,Swiss-Belhotel Ambon
460,Maebaru,JP,65.8,broken clouds,33.55,130.2,Guest house Kotonoha
461,Bin Qirdan,TN,67.32,overcast clouds,33.1378,11.2197,Hôtel Palace
462,Puerto Ayacucho,VE,95.61,broken clouds,5.6639,-67.6236,Posada Turistica Manapiare
463,Port-Cartier,CA,37.51,overcast clouds,50.0334,-66.8654,Le Q'Artier
464,Gat,IL,61.81,clear sky,31.61,34.7642,OlusHome
465,Saint Andrews,US,83.12,broken clouds,34.0454,-81.1293,Baymont by Wyndham Columbia Northwest
466,Labuhan,ID,78.64,broken clouds,-6.8844,112.2051,DoubleFAG
467,Antofagasta,CL,63.68,clear sky,-23.65,-70.4,"Holiday Inn Express Antofagasta, an IHG Hotel"
468,Soe,ID,65.64,overcast clouds,-9.8607,124.284,Dena Hotel
469,Lorengau,PG,80.62,scattered clouds,-2.0226,147.2712,Lorengau Harbourside Hotel
470,Batsfjord,NO,30.13,light snow,70.6345,29.7185,Adventure Apartements
471,Hambantota,LK,80.76,overcast clouds,6.1241,81.1185,Bungalow 63
472,Nizhnevartovsk,RU,37.42,clear sky,60.9344,76.5531,Luch
473,Wageningen,NL,70.18,overcast clouds,51.9667,5.6667,Fletcher Hotel-Restaurant De Wageningsche Berg
474,San Carlos,VE,98.22,broken clouds,9.6612,-68.5827,Hotel Paternopoli
475,Vanimo,PG,78.04,broken clouds,-2.6741,141.3028,Vahmoneh Lodge Vanimo
476,Pedasi,PA,92.07,overcast clouds,7.5333,-80.0333,Selina Pedasi
477,Sola,VU,81.73,scattered clouds,-13.8833,167.55,Leumerus Bungalows
478,Mataram,ID,78.71,overcast clouds,-8.5833,116.1167,Hotel Santika Mataram
479,Lagoa,PT,60.57,overcast clouds,39.05,-27.9833,Casa Das Faias
480,Saldanha,ZA,66.25,scattered clouds,-33.0117,17.9442,Blue Bay Lodge
481,Muisne,EC,79.05,overcast clouds,0.6,-80.0333,Quinta Samay
482,Usinsk,RU,34.57,snow,65.9939,57.5281,Dobro Pozhalovaty
483,Zalari,RU,27.82,overcast clouds,53.5584,102.5065,"""Belyye Rosy"""
484,Sault Sainte Marie,CA,52.36,clear sky,46.5168,-84.3333,Comfort Inn
485,Klaksvik,FO,41.92,overcast clouds,62.2266,-6.589,Airbnb rooms
487,Scottsbluff,US,46.63,overcast clouds,41.8666,-103.6672,Hampton Inn & Suites Scottsbluff-Conference Center
488,Batesville,US,74.84,overcast clouds,35.7698,-91.641,"Holiday Inn Express & Suites Batesville, an IHG Hotel"
489,Peski,RU,53.17,overcast clouds,55.2163,38.7626,Dachi Khudozhnikov
490,Guaruja,BR,85.89,few clouds,-23.9931,-46.2564,Charme Hotel Guarujá
491,Fare,PF,81.95,clear sky,-16.7,-151.0167,Maitai Lapita Village Huahine
492,Vaitape,PF,81.73,clear sky,-16.5167,-151.75,Conrad Bora Bora Nui
493,Chivacoa,VE,91.51,broken clouds,10.1603,-68.895,Hotel Fache C.A
494,Vetapalem,IN,83.07,broken clouds,15.7833,80.3167,Lelavathi hotel
495,Naryan-Mar,RU,34.41,overcast clouds,67.6713,53.087,Hostel Agat
496,Sokoni,TZ,80.46,overcast clouds,-6.4333,39.55,Ujamaa Beach Resort
497,Casablanca,MA,68.22,broken clouds,33.5928,-7.6192,فندق البيت المغربي كازبلانكا
500,Kavaratti,IN,84.87,overcast clouds,10.5669,72.642,Hotels in Lakshadweep Islands
501,Vacha,RU,51.53,overcast clouds,55.8008,42.7706,Dom Druga
502,Pimentel,PE,77.29,clear sky,-6.8367,-79.9342,Hotel Puerto del Sol
503,San Angelo,US,91.29,clear sky,31.4638,-100.437,"Motel 6 San Angelo, TX"
504,Qujing,CN,51.73,few clouds,25.4833,103.7833,Yulong Hotel
505,Pafos,CY,58.78,clear sky,34.7667,32.4167,Elysium Hotel
506,Ranong,TH,79.54,broken clouds,9.9658,98.6348,Tinidee Hotel@Ranong
507,Miri,MY,77.14,scattered clouds,4.4148,114.0089,"Mega Hotel, Miri"
509,Mecca,SA,85.71,clear sky,21.4267,39.8261,"Makkah Clock Royal Tower, A Fairmont Hotel"
510,Warrington,GB,57.96,broken clouds,53.3925,-2.5802,Villaggio Hotel
511,Pontianak,ID,76.98,thunderstorm,-0.0333,109.3333,Aston Pontianak Hotel & Convention Center
512,Sept-Iles,CA,37.83,overcast clouds,50.2001,-66.3821,Comfort Inn
514,Ulladulla,AU,58.1,overcast clouds,-35.35,150.4667,Sandpiper Motel
515,Tamale,GH,98.42,broken clouds,9.4008,-0.8393,Tap Hotel
516,Torrevieja,ES,64.35,overcast clouds,37.9787,-0.6822,Hotel Fontana Plaza
518,Buzdyak,RU,42.33,overcast clouds,54.5833,54.55,Tgk Alisa
520,Saint John,CA,46.18,light rain,45.2727,-66.0677,Delta Hotels by Marriott Saint John
521,San Andres,CO,86.02,few clouds,12.5847,-81.7006,Hotel Arena Blanca
522,Grand Gaube,MU,77.4,clear sky,-20.0064,57.6608,Veranda Paul et Virginie Hotel & Spa
523,Juneau,US,32.22,few clouds,58.3019,-134.4197,"Baranof Downtown, BW Signature Collection"
524,Suhbaatar,MN,30.36,light snow,50.2314,106.2078,Hotel Nine
525,Baraboo,US,60.94,overcast clouds,43.4711,-89.7443,Thunderbird Motor Inn
527,Noumea,NC,77.0,few clouds,-22.2763,166.4572,Hôtel Le Lagon
528,Yatou,CN,48.78,overcast clouds,37.15,122.3833,GreenTree Hotel Rongcheng Bus Station
529,Carlagan,PH,77.97,overcast clouds,14.975,122.0456,Cabatagan Island
530,Ararat,AM,53.94,clear sky,39.8317,44.7049,NORSED MOTEL/НОРСЕД МОТЕЛЬ/ՆՈՐՍԵԴ ՄՈԹԵԼ
531,Andrews,US,82.27,clear sky,32.3187,-102.5457,Days Inn by Wyndham Andrews Texas
532,Esperance,AU,64.24,broken clouds,-33.8667,121.9,Hospitality Esperance
533,Oistins,BB,86.09,few clouds,13.0667,-59.5333,Butterfly Beach Hotel
534,Kismayo,SO,81.64,light rain,-0.3582,42.5454,Agan-Hotel
535,Yar-Sale,RU,34.77,overcast clouds,66.8333,70.8333,Yalemd
536,Blackwater,AU,68.13,clear sky,-23.5833,148.8833,Blackwater Motor Inn
539,Cortez,US,34.7,overcast clouds,37.3489,-108.5859,Sand Canyon National 9 Inn
540,Sungaipenuh,ID,64.81,overcast clouds,-2.0833,101.3833,Penginapan Citra Alam
541,Kangaatsiaq,GL,28.02,scattered clouds,68.3065,-53.4641,Nukissiorfiit
542,Lewistown,US,69.21,clear sky,40.5992,-77.5714,Quality Inn & Suites
543,Nauta,PE,83.1,broken clouds,-4.5061,-73.5757,Amazon Exploring Expedition - Eretzen Tá Lodge
544,Riyadh,SA,95.14,broken clouds,24.6877,46.7219,"InterContinental Riyadh, an IHG Hotel"
545,Alofi,NU,69.69,overcast clouds,-19.0595,-169.9187,Taloa Heights
546,Bemidji,US,39.29,overcast clouds,47.4736,-94.8803,Hampton Inn & Suites Bemidji
548,Jiangkou,CN,68.5,clear sky,25.4872,119.1986,DFM Hotel
549,Los Llanos De Aridane,ES,62.35,scattered clouds,28.6585,-17.9182,Valle Aridane
550,Cockburn Town,TC,76.82,broken clouds,21.4612,-71.1419,Osprey Beach Hotel
551,Nuqui,CO,82.71,moderate rain,5.7125,-77.2708,Hotel Nuquimar
552,Suntar,RU,16.38,overcast clouds,62.1444,117.6319,Гостевая квартира
553,Alexandria,EG,62.56,scattered clouds,31.2156,29.9553,Royal Crown Hotel
554,Ketchikan,US,39.67,clear sky,55.3422,-131.6461,Snow's Cove Lodge
555,Perove,UA,41.43,overcast clouds,44.9333,34.0667,5 Zvezd
556,Srikakulam,IN,81.09,broken clouds,18.3,83.9,Micro Systems
557,Chekhov,RU,42.69,overcast clouds,55.1431,37.4711,Domik v derevne
558,Yelizovo,RU,23.14,clear sky,53.1873,158.3805,Kamchatskiy Stil' Hostel
559,La Palma,US,65.91,few clouds,33.8464,-118.0467,La Quinta Inn & Suites by Wyndham Buena Park
561,Kathmandu,NP,70.02,few clouds,27.7167,85.3167,Hotel Shanker Kathmandu
562,Yazoo City,US,79.7,broken clouds,32.8551,-90.4056,Hampton Inn Yazoo City
564,Abu Dhabi,AE,87.91,clear sky,24.4667,54.3667,Beach Rotana
565,Santa Maria,BR,78.1,broken clouds,-29.6842,-53.8069,Hotel Morotin
566,Ostersund,SE,39.65,clear sky,63.1792,14.6357,Best Western Hotel Gamla Teatern
567,Placido De Castro,BR,86.74,broken clouds,-10.3353,-67.1856,Hotel Carioca
568,Den Chai,TH,84.06,broken clouds,17.9837,100.0522,Ruean Saen Hotel
569,Guiren,CN,53.1,light rain,33.6697,118.1889,Suyuan Hotel
570,Gulf Gate Estates,US,84.06,clear sky,27.2517,-82.5147,Best Western Plus Siesta Key Gateway
571,Imbituba,BR,76.82,overcast clouds,-28.24,-48.6703,Praia Hotel Imbituba
572,Otane,NZ,57.0,light rain,-39.8833,176.6333,Ludlow Farmstay
573,Liverpool,GB,57.78,broken clouds,53.4106,-2.9779,Premier Inn Liverpool City Centre (Moorfields) hotel
575,Saint Anthony,US,55.0,broken clouds,45.0205,-93.218,"Holiday Inn Express Roseville-St. Paul, an IHG Hotel"
576,Klerksdorp,ZA,66.24,broken clouds,-26.8521,26.6667,Alte Welkom Guesthouse
577,Trujillo,PE,66.16,fog,-8.116,-79.03,Casa Andina Standard Trujillo Plaza
578,Sorong,ID,80.62,overcast clouds,-0.8833,131.25,Waigo Splash Hotel
579,Bose,IT,62.15,overcast clouds,45.4612,8.0137,Locanda Borgo Antico
580,Garden City,US,66.36,few clouds,42.3256,-83.331,Big Trees Mobile Home Community
581,Magna,US,36.61,broken clouds,40.7091,-112.1016,Kopper View Manufactured Home Community
582,Bonavista,CA,32.41,light snow,48.6499,-53.1147,Sweet Sharons bnb
583,Noyabrsk,RU,31.51,overcast clouds,63.1994,75.4507,Hotel Uyutnaya
584,Williams Lake,CA,29.77,scattered clouds,52.1415,-122.1445,Stampeder Motel
585,Kingsport,US,65.59,overcast clouds,36.5484,-82.5618,MeadowView Conference Resort & Convention Center
587,Linxia,CN,44.26,clear sky,35.6003,103.2064,GreenTree Inn Linxia Autonomous Prefecture Linxia Oxford River Avenue Express Hotel
588,Ambilobe,MG,75.11,scattered clouds,-13.2,49.05,Hôtel & Restaurant DIANA Ambilobe
589,Rio Cuarto,AR,51.57,overcast clouds,-33.1307,-64.3499,Hotel Menossi
590,Seitin,RO,55.54,few clouds,46.1,20.85,Mureș ”La Căsoaie”
591,Dese,ET,59.11,scattered clouds,11.1333,39.6333,Joamla Hotel
592,La Baule-Escoublac,FR,60.46,clear sky,47.2922,-2.364,Hôtel Barrière Le Royal La Baule
593,Voi,KE,76.51,overcast clouds,-3.3945,38.563,Voi Wildlife Lodge
594,Ambulu,ID,74.88,overcast clouds,-8.345,113.6058,Hotel Ambulu Jember
595,Wangqing,CN,37.65,overcast clouds,43.3218,129.7634,Jianan Fashion Hotel
596,Vardo,NO,30.31,broken clouds,70.3705,31.1107,Vardø Hotel AS
597,North Bend,US,47.07,broken clouds,43.4065,-124.2243,Red Lion Hotel Coos Bay
598,Anchorage,US,37.65,clear sky,61.2181,-149.9003,Hotel Captain Cook
599,Depalpur,IN,81.0,overcast clouds,22.85,75.55,222 Shiv palace शिव पैलेस
600,Mackay,AU,75.18,broken clouds,-21.15,149.2,International Lodge Motel
601,Banda Aceh,ID,81.05,broken clouds,5.5577,95.3222,OYO 884 Rumoh PMI Hotel
602,Lunino,RU,50.32,broken clouds,53.5918,45.2271,Мини гостиница у Славы
603,Khategaon,IN,94.53,overcast clouds,22.6,76.9167,Sawariya Palace
604,Inegol,TR,45.68,broken clouds,40.0781,29.5133,Hotel Park Inegöl
605,Varzelandia,BR,89.22,broken clouds,-15.7014,-44.0275,Pousada Portal da Cidade
606,Porto Novo,BJ,85.55,overcast clouds,6.4965,2.6036,Tour Eiffel Hotel Benin
608,Reinosa,ES,53.1,overcast clouds,42.9996,-4.138,Hotel Vejo
609,Macherla,IN,84.0,broken clouds,16.4833,79.4333,Vivek express
610,Kautokeino,NO,20.5,broken clouds,69.0125,23.0412,Thon Hotel Kautokeino
611,Palana,RU,12.02,overcast clouds,59.1167,159.9667,Chikago
612,Huron,US,65.66,clear sky,41.1501,-82.5499,Meadow Brook Mobile Estates
613,Grenfell,AU,51.33,broken clouds,-33.9,148.1667,Grenfell Royal Hotel
614,Valparaiso,CL,70.03,clear sky,-33.0393,-71.6273,Hotel Ultramar
615,Manggar,ID,80.71,overcast clouds,-2.8833,108.2667,Guest Hotel
616,Xining,CN,40.12,overcast clouds,36.6167,101.7667,Super Leisure Hotel
617,Itarema,BR,82.85,overcast clouds,-2.9248,-39.9167,"Sea Lounge! Bar, Club & Restaurant"
618,Cabra,ES,56.66,overcast clouds,37.4725,-4.4421,MS Fuente Las Piedras
619,Trelew,AR,61.66,scattered clouds,-43.249,-65.3051,Hotel Touring Club
620,Vestmannaeyjar,IS,43.79,few clouds,63.4427,-20.2734,Glamping & Camping
621,Selikhino,RU,26.71,overcast clouds,50.3672,137.4996,Tosklivyy Dom
623,Bodden Town,KY,84.2,broken clouds,19.2833,-81.25,Will T Place
624,Belyy Yar,RU,31.89,light shower snow,53.6039,91.3903,Pasportnyy Stol
625,Takoradi,GH,84.99,overcast clouds,4.8845,-1.7554,Raybow International Hotel
626,Marquette,US,51.78,broken clouds,46.5333,-87.6335,Al Quaal Lodge
627,Jagodina,RS,51.85,clear sky,43.9814,21.2622,Hill Hotel Jagodina
628,Dingle,PH,72.57,overcast clouds,10.9995,122.6711,SEGAYA PROPERTY
630,Akyab,MM,81.14,clear sky,20.15,92.9,Hotel Memory
631,Biankouma,CI,83.14,light rain,7.7391,-7.6138,Hôtel Licolais
632,Porto Velho,BR,84.25,moderate rain,-8.7619,-63.9039,Ecos Hotel Conforto
633,Peterborough,GB,63.9,broken clouds,52.5736,-0.2478,Park Inn by Radisson Peterborough Hotel
634,Pakxan,LA,79.14,scattered clouds,18.3778,103.6601,Kong Kham Pheng Guesthouse
635,Guayaramerin,BO,87.85,scattered clouds,-10.8368,-65.3614,Hostal Funf
636,Wanaka,NZ,39.11,clear sky,-44.7,169.15,Wanaka Homestead Lodge and Cottages
637,Kuliyapitiya,LK,74.88,moderate rain,7.4688,80.0401,Rest House
638,Hualmay,PE,72.21,scattered clouds,-11.0964,-77.6139,Hotel Villa Kitzia Huacho
639,Manadhoo,MV,84.18,scattered clouds,5.7667,73.3833,Bon Abri maldives
640,Alugan,PH,77.0,overcast clouds,12.2188,125.4808,JM Lodge
641,Byron Bay,AU,66.09,overcast clouds,-28.65,153.6167,Backpackers Inn
642,Cam Ranh,VN,76.96,few clouds,11.9214,109.1591,OYO 598 Peony Hotel
643,Dongkan,CN,51.6,moderate rain,33.9997,119.8308,Triumphal Resort
644,Eftimie Murgu,RO,51.53,clear sky,44.9003,22.0928,Pensiune
646,Mitsamiouli,KM,82.69,few clouds,-11.3847,43.2844,Foyer ADM
647,Bokony,HU,51.46,scattered clouds,47.7333,21.75,Kemencés Vendégház
649,Ca Mau,VN,77.83,scattered clouds,9.1769,105.15,Khách Sạn Mường Thanh Luxury Cà Mau
650,Manokwari,ID,77.99,broken clouds,-0.8667,134.0833,Swiss Belhotel Manokwari
651,Aljezur,PT,60.44,clear sky,37.3191,-8.8033,Amazigh Hostel
652,Huanren,CN,39.24,overcast clouds,41.2647,125.3667,Dynasty Wunvshan Ice Chateau
653,Umm Lajj,SA,75.6,overcast clouds,25.0213,37.2685,Moon light Furnished Units
654,El Dorado,US,43.79,clear sky,38.7666,-120.5177,South Fork Group Campground
655,Aiken,US,81.57,clear sky,33.5835,-81.5998,Aiken Cottages
656,Hovd,MN,35.33,clear sky,48.0056,91.6419,Hotel Khovd
658,Kralendijk,BQ,85.98,broken clouds,12.15,-68.2667,Divi Flamingo Beach Resort & Casino
659,Valleyview,CA,12.24,overcast clouds,55.0667,-117.2859,Paradise Inn & Suites
660,San Zenon,CO,93.42,overcast clouds,9.2422,-74.5004,HOTEL TIERRAFIRME
661,Soligalich,RU,42.12,overcast clouds,59.0778,42.2864,Kurort Im. A.p. Borodina
662,Dzaoudzi,YT,80.49,broken clouds,-12.7887,45.2699,Le Rocher
663,Saiha,IN,68.61,few clouds,22.4833,92.9667,"Circuit House, Siaha"
664,Tchaourou,BJ,87.04,broken clouds,8.8865,2.5975,SAFIR HOTEL
665,Concarneau,FR,57.81,broken clouds,47.875,-3.9225,Brit Hotel de L' Océan
666,Guerrero Negro,MX,63.46,overcast clouds,27.9769,-114.0611,"Casa Laguna, Bed & Breakfast"
667,Marawi,PH,68.7,light rain,7.9986,124.2928,Derogongan Residence
668,Whitehorse,CA,14.09,clear sky,60.7161,-135.0538,The Sternwheeler Hotel & Conference Centre
671,Sao Domingos Do Maranhao,BR,83.23,overcast clouds,-5.5758,-44.3853,Pousada Babaçu
672,Rockland,US,67.1,broken clouds,41.1668,-74.0496,National Camp Association
673,Dera Ghazi Khan,PK,89.78,clear sky,30.0561,70.6348,Hamlani Khosa Chowk
674,Sao Borja,BR,76.95,scattered clouds,-28.6606,-56.0044,Hotel Executivo
675,Kalininsk,RU,54.36,scattered clouds,51.5,44.4758,Guest House on Chekhova
676,Inuvik,CA,18.46,clear sky,68.3499,-133.7218,Nova Inn Inuvik
677,Samarai,PG,82.9,broken clouds,-10.6167,150.6667,Nuli Sapi
678,Dhadar,IN,85.5,scattered clouds,28.3305,75.0632,ढाढर
679,Jieshou,CN,53.26,moderate rain,33.2634,115.3611,Vatica Jieshou City New Passenger Transport Center Hotel
680,Ixtlan Del Rio,MX,82.4,scattered clouds,21.0333,-104.3667,Hotel Plaza Hidalgo
681,Mehran,IR,77.77,broken clouds,33.1222,46.1646,بوتیک زنانه بهار
683,Ambovombe,MG,73.85,overcast clouds,-25.1667,46.0833,RELAHARA
684,San Jose,US,56.53,few clouds,37.3394,-121.895,The Westin San Jose
685,Tuy Hoa,VN,74.07,scattered clouds,13.0833,109.3,CenDeluxe Hotel Tuy Hoa
686,Mayo,US,75.78,overcast clouds,38.8876,-76.5119,Resorts Resource Group International
687,Kachug,RU,23.38,overcast clouds,53.9606,105.8817,"The hotel ""Empire"""
689,Carbonia,IT,61.75,broken clouds,39.1672,8.5222,Lu 'Hotel
690,Derzhavinsk,KZ,47.86,overcast clouds,51.1,66.3167,Ooo.khim Baza
691,Ratnagiri,IN,83.97,broken clouds,16.9833,73.3,Hotel Landmark
692,Bartica,GY,82.72,overcast clouds,6.4,-58.6167,Sloth Island Nature Resort
693,Rawson,AR,60.31,few clouds,-43.3002,-65.1023,Hosteria Sampedro
